{
  "data": [
    {
      "gu": "서구",
      "name": "내당1동 행정복지센터",
      "address": "서구 서대구로4길 35(내당동)",
      "phone": "663-3301",
      "latitude": "35.8606528034939",
      "longitude": "128.560725409471"
    },
    {
      "gu": "서구",
      "name": "내당2.3동 행정복지센터",
      "address": "서구 큰장로15길 11-1(내당동)",
      "phone": "663-3302",
      "latitude": "35.8672752789082",
      "longitude": "128.57453241687"
    },
    {
      "gu": "서구",
      "name": "내당4동 행정복지센터",
      "address": "서구 서대구로3길 46(내당동)",
      "phone": "663-3303",
      "latitude": "35.8590204613206",
      "longitude": "128.551843290608"
    },
    {
      "gu": "서구",
      "name": "비산1동 행정복지센터",
      "address": "서구 북비산로65길 18(비산동)",
      "phone": "663-3304",
      "latitude": "35.8811708381801",
      "longitude": "128.568969860749"
    },
    {
      "gu": "서구",
      "name": "비산2.3동 행정복지센터",
      "address": "서구 국채보상로81길 43(비산동)",
      "phone": "663-3305",
      "latitude": "35.8758005173657",
      "longitude": "128.574714865215"
    },
    {
      "gu": "서구",
      "name": "비산4동 행정복지센터",
      "address": "서구 국채보상로78길 29-4(비산동)",
      "phone": "663-3306",
      "latitude": "35.8697558382396",
      "longitude": "128.57430748291"
    },
    {
      "gu": "서구",
      "name": "비산5동 행정복지센터",
      "address": "서구 달서천로65길 17(비산동)",
      "phone": "663-3307",
      "latitude": "35.8863243507312",
      "longitude": "128.569642054349"
    },
    {
      "gu": "서구",
      "name": "비산6동 행정복지센터",
      "address": "서구 문화로67길 3(비산동)",
      "phone": "663-3308",
      "latitude": "35.8763032122416",
      "longitude": "128.569093969639"
    },
    {
      "gu": "서구",
      "name": "비산7동 행정복지센터",
      "address": "서구 서대구로 345 만평헤리티지아파트 2층(비산동)",
      "phone": "663-3309",
      "latitude": "35.888210884623",
      "longitude": "128.559135823183"
    },
    {
      "gu": "서구",
      "name": "평리1동 행정복지센터",
      "address": "서구 문화로 280(평리동)",
      "phone": "663-3310",
      "latitude": "35.8755979533562",
      "longitude": "128.563263464966"
    },
    {
      "gu": "서구",
      "name": "평리2동 행정복지센터",
      "address": "서구 국채보상로60길 6(평리동)",
      "phone": "663-3311",
      "latitude": "35.8712185730753",
      "longitude": "128.563643201315"
    },
    {
      "gu": "서구",
      "name": "평리3동 행정복지센터",
      "address": "서구 문화로 261(평리동)",
      "phone": "663-3312",
      "latitude": "35.8759547557349",
      "longitude": "128.561300045802"
    },
    {
      "gu": "서구",
      "name": "평리4동 행정복지센터",
      "address": "서구 국채보상로46길  37-3(평리동)",
      "phone": "663-3313",
      "latitude": "35.8673400905174",
      "longitude": "128.556798764815"
    },
    {
      "gu": "서구",
      "name": "평리5동 행정복지센터",
      "address": "서구 국채보상로 151, 2층 5층(평리동)",
      "phone": "663-3314",
      "latitude": "35.8695208911264",
      "longitude": "128.547774582894"
    },
    {
      "gu": "서구",
      "name": "평리6동 행정복지센터",
      "address": "서구 서대구로41길 41(평리동)",
      "phone": "663-3315",
      "latitude": "35.8765752409803",
      "longitude": "128.550082242698"
    },
    {
      "gu": "서구",
      "name": "상중이동 행정복지센터",
      "address": "서구 당산로 343(중리동)",
      "phone": "663-3316",
      "latitude": "35.8669758024787",
      "longitude": "128.546114124657"
    },
    {
      "gu": "서구",
      "name": "원대동 행정복지센터",
      "address": "서구 달서로 257(원대동)",
      "phone": "663-3317",
      "latitude": "35.8852005531328",
      "longitude": "128.573462188952"
    },
    {
      "gu": "서구",
      "name": "서구 보건소",
      "address": "서구 국채보상로 257",
      "phone": "663-3111",
      "latitude": "35.8723387527958",
      "longitude": "128.559279224869"
    },
    {
      "gu": "달성군",
      "name": "달성군청",
      "address": "대구광역시 달성군 달성군청로 33",
      "phone": "053-668-2734",
      "latitude": "35.7746631676172",
      "longitude": "128.431389741374"
    },
    {
      "gu": "달성군",
      "name": "하빈면행정복지센터",
      "address": "대구광역시 달성군 하빈로84길 1",
      "phone": "053-668-5621",
      "latitude": "35.9009218891755",
      "longitude": "128.445516802363"
    },
    {
      "gu": "달성군",
      "name": "하빈면보건지소",
      "address": "대구광역시 달성군 하빈로 423",
      "phone": "053-668-3415",
      "latitude": "35.9016926964681",
      "longitude": "128.444951430549"
    },
    {
      "gu": "달성군",
      "name": "다사읍행정복지센터",
      "address": "대구광역시 달성군 다사읍 매곡로 7",
      "phone": "053-668-5556",
      "latitude": "35.862023137413",
      "longitude": "128.454203630907"
    },
    {
      "gu": "달성군",
      "name": "유가읍행정복지센터",
      "address": "대구광역시 달성군 유가읍 테크노상업로 95",
      "phone": "053-668-5837",
      "latitude": "35.6938868535188",
      "longitude": "128.459817158485"
    },
    {
      "gu": "달성군",
      "name": "현풍읍 행정복지센터",
      "address": "대구광역시 달성군 현풍읍 비슬로134길 157",
      "phone": "053-668-5406",
      "latitude": "35.697251800225",
      "longitude": "128.447573105317"
    },
    {
      "gu": "달성군",
      "name": "달성군 보건소",
      "address": "대구광역시 달성군 현풍읍 현풍중앙로 27",
      "phone": "053-668-3953",
      "latitude": "35.6920062392667",
      "longitude": "128.446210542368"
    },
    {
      "gu": "달성군",
      "name": "화원읍행정복지센터",
      "address": "대구광역시 달성군 화원읍 화암로10",
      "phone": "053-668-5451",
      "latitude": "35.7976899331831",
      "longitude": "128.489804278713"
    },
    {
      "gu": "달성군",
      "name": "논공읍행정복지센터",
      "address": "대구광역시 달성군 논공읍 비슬로 1779",
      "phone": "053-668-5506",
      "latitude": "35.7742727689388",
      "longitude": "128.420332954017"
    },
    {
      "gu": "달성군",
      "name": "구지면행정복지센터",
      "address": "대구광역시 달성군 구지면 창리로11길 38",
      "phone": "053-668-5778",
      "latitude": "35.6587923600585",
      "longitude": "128.41359384741"
    },
    {
      "gu": "북구",
      "name": "북구청",
      "address": "대구광역시 북구 옥산로 65 (침산동)",
      "phone": "053-665-2000",
      "latitude": "35.8856842974977",
      "longitude": "128.58278016173"
    },
    {
      "gu": "북구",
      "name": "고성동 행정복지센터",
      "address": "대구광역시 북구 고성로31길 21 (고성동3가)",
      "phone": "053-665-3404",
      "latitude": "35.881845842692",
      "longitude": "128.583507567164"
    },
    {
      "gu": "북구",
      "name": "칠성동 행정복지센터",
      "address": "대구광역시 북구 칠성로19길 4 (칠성동2가)",
      "phone": "053-665-3429",
      "latitude": "35.8792240825644",
      "longitude": "128.600019842249"
    },
    {
      "gu": "북구",
      "name": "침산1동 행정복지센터",
      "address": "대구광역시 북구 침산남로13길 16 (침산동)",
      "phone": "053-665-3455",
      "latitude": "35.8903182218",
      "longitude": "128.581352125025"
    },
    {
      "gu": "북구",
      "name": "침산2동 행정복지센터",
      "address": "대구광역시 북구 침산남로 195 (침산동)",
      "phone": "053-665-3465",
      "latitude": "35.8872683405158",
      "longitude": "128.596990320346"
    },
    {
      "gu": "북구",
      "name": "침산3동 행정복지센터",
      "address": "대구광역시 북구 성북로 55 (침산동)",
      "phone": "053-665-3486",
      "latitude": "35.8920180350543",
      "longitude": "128.589324927156"
    },
    {
      "gu": "북구",
      "name": "노원동 행정복지센터",
      "address": "대구광역시 북구 노원로10길 166 (노원동2가)",
      "phone": "053-665-3505",
      "latitude": "35.8901476316103",
      "longitude": "128.576225773405"
    },
    {
      "gu": "북구",
      "name": "산격1동 행정복지센터",
      "address": "대구광역시 북구 연암로36길 6 (산격동)",
      "phone": "053-665-3557",
      "latitude": "35.900391609817",
      "longitude": "128.596890463386"
    },
    {
      "gu": "북구",
      "name": "산격2동 행정복지센터",
      "address": "대구광역시 북구 동북로31길 30 (산격동)",
      "phone": "053-665-3566",
      "latitude": "35.9017327781897",
      "longitude": "128.609254354326"
    },
    {
      "gu": "북구",
      "name": "산격4동 행정복지센터",
      "address": "대구광역시 북구 대구체육관로 48 (산격동)",
      "phone": "053-665-3604",
      "latitude": "35.8922712392337",
      "longitude": "128.604281391426"
    },
    {
      "gu": "북구",
      "name": "복현1동 행정복지센터",
      "address": "대구광역시 북구 동북로52길 7 (복현동)",
      "phone": "053-665-3624",
      "latitude": "35.8937691610087",
      "longitude": "128.618586493494"
    },
    {
      "gu": "북구",
      "name": "복현2동 행정복지센터",
      "address": "대구광역시 북구 복현로8길 16-5 (복현동)",
      "phone": "053-665-3647",
      "latitude": "35.8953628325238",
      "longitude": "128.625489605042"
    },
    {
      "gu": "북구",
      "name": "대현동 행정복지센터",
      "address": "대구광역시 북구 대현남로 25 (대현동)",
      "phone": "053-665-3686",
      "latitude": "35.8815798696909",
      "longitude": "128.604644273969"
    },
    {
      "gu": "북구",
      "name": "검단동 행정복지센터",
      "address": "대구광역시 북구 검단로41길 12 (검단동)",
      "phone": "053-665-3712",
      "latitude": "35.9134685704033",
      "longitude": "128.627220864301"
    },
    {
      "gu": "북구",
      "name": "무태조야동 행정복지센터",
      "address": "대구광역시 북구 호국로43길 20 (서변동)",
      "phone": "053-665-3724",
      "latitude": "35.9213530509259",
      "longitude": "128.597046062394"
    },
    {
      "gu": "북구",
      "name": "관문동 행정복지센터",
      "address": "대구광역시 북구 매천로18길 34 (매천동)",
      "phone": "053-665-3747",
      "latitude": "35.9008626491118",
      "longitude": "128.543249395529"
    },
    {
      "gu": "북구",
      "name": "태전1동 행정복지센터",
      "address": "대구광역시 북구 태전로7길 10-24 (태전동)",
      "phone": "053-665-3769",
      "latitude": "35.9241286969033",
      "longitude": "128.543400505709"
    },
    {
      "gu": "북구",
      "name": "태전2동 행정복지센터",
      "address": "대구광역시 북구 칠곡중앙대로52길 32 (태전동)",
      "phone": "053-665-3788",
      "latitude": "35.9214932489939",
      "longitude": "128.548764112926"
    },
    {
      "gu": "북구",
      "name": "구암동 행정복지센터",
      "address": "대구광역시 북구 구암서로 32 (구암동)",
      "phone": "053-665-3813",
      "latitude": "35.9389322230801",
      "longitude": "128.566040609626"
    },
    {
      "gu": "북구",
      "name": "관음동 행정복지센터",
      "address": "대구광역시 북구 관음동로 125 (관음동)",
      "phone": "053-665-3826",
      "latitude": "35.9442530628034",
      "longitude": "128.547326727524"
    },
    {
      "gu": "북구",
      "name": "읍내동 행정복지센터",
      "address": "대구광역시 북구 칠곡중앙대로 561 (읍내동)",
      "phone": "053-665-3845",
      "latitude": "35.9459215699445",
      "longitude": "128.550527527646"
    },
    {
      "gu": "북구",
      "name": "동천동 행정복지센터",
      "address": "대구광역시 북구 대천로 81 (동천동)",
      "phone": "053-665-3864",
      "latitude": "35.9373274954154",
      "longitude": "128.558181299164"
    },
    {
      "gu": "북구",
      "name": "국우동 행정복지센터",
      "address": "대구광역시 북구 구리로 188 (국우동)",
      "phone": "053-665-3882",
      "latitude": "35.9480267241271",
      "longitude": "128.575399733299"
    },
    {
      "gu": "중구",
      "name": "동인동행정복지센터",
      "address": "대구광역시 중구 국채보상로 142길 19-5",
      "phone": "053-661-3559",
      "latitude": "35.8679043722422",
      "longitude": "128.609127380318"
    },
    {
      "gu": "중구",
      "name": "삼덕동행정복지센터",
      "address": "대구광역시 중구 달구벌대로 447길 72-11",
      "phone": "053-661-3593",
      "latitude": "35.8655246235437",
      "longitude": "128.608940100585"
    },
    {
      "gu": "중구",
      "name": "성내1동행정복지센터",
      "address": "대구광역시 중구 동성로2길 7",
      "phone": "053-661-3615",
      "latitude": "35.8666439315952",
      "longitude": "128.595788621915"
    },
    {
      "gu": "중구",
      "name": "성내2동행정복지센터",
      "address": "대구광역시 중구 달구벌대로 415길 48",
      "phone": "053-661-3634",
      "latitude": "35.868380529752",
      "longitude": "128.59038703743"
    },
    {
      "gu": "중구",
      "name": "성내3동행정복지센터",
      "address": "대구광역시 중구 달성동 229-28",
      "phone": "053-661-3652",
      "latitude": "35.875013774091",
      "longitude": "128.581849696456"
    },
    {
      "gu": "중구",
      "name": "대신동행정복지센터",
      "address": "대구광역시 중구 달구벌대로 389길 50",
      "phone": "053-661-3673",
      "latitude": "35.8655505903502",
      "longitude": "128.576338158037"
    },
    {
      "gu": "중구",
      "name": "남산1동행정복지센터",
      "address": "대구광역시 중구 228길 18-15",
      "phone": "053-661-3695",
      "latitude": "35.8593495875735",
      "longitude": "128.590437168314"
    },
    {
      "gu": "중구",
      "name": "남산2동행정복지센터",
      "address": "대구광역시 중구 명륜로 27-1",
      "phone": "053-661-3718",
      "latitude": "35.8640887307063",
      "longitude": "128.589564075687"
    },
    {
      "gu": "중구",
      "name": "남산3동행정복지센터",
      "address": "대구광역시 중구 남산로4길 70",
      "phone": "053-661-3735",
      "latitude": "35.8599104438276",
      "longitude": "128.585557849668"
    },
    {
      "gu": "중구",
      "name": "남산4동행정복지센터",
      "address": "대구광역시 중구 남산로1길 42",
      "phone": "053-661-3761",
      "latitude": "35.8582240574125",
      "longitude": "128.580571732355"
    },
    {
      "gu": "중구",
      "name": "대봉1동행정복지센터",
      "address": "대구광역시 중구 달구벌대로 440길 27",
      "phone": "053-661-3773",
      "latitude": "35.8615446463773",
      "longitude": "128.604392135989"
    },
    {
      "gu": "중구",
      "name": "대봉2동행정복지센터",
      "address": "대구광역시 중구 대봉로47길 31",
      "phone": "053-661-3794",
      "latitude": "35.8587591941347",
      "longitude": "128.599366066728"
    },
    {
      "gu": "중구",
      "name": "중구 보건소",
      "address": "대구광역시 중구 태평로 45",
      "phone": "053-661-3817",
      "latitude": "35.8779060610615",
      "longitude": "128.583335460434"
    },
    {
      "gu": "수성구",
      "name": "범어1동 행정복지센터",
      "address": "대구광역시 수성구 범어천로97(범어동)",
      "phone": "053-666-3533",
      "latitude": "35.8555318317638",
      "longitude": "128.622048397121"
    },
    {
      "gu": "수성구",
      "name": "범어3동 행정복지센터",
      "address": "대구광역시 수성구 상록로 42(범어동)",
      "phone": "053-666-3574",
      "latitude": "35.8632647983087",
      "longitude": "128.624215051651"
    },
    {
      "gu": "수성구",
      "name": "범어4동 행정복지센터",
      "address": "대구광역시 수성구 달구벌대로504길 26(범어동)",
      "phone": "053-666-3597",
      "latitude": "35.8562065026769",
      "longitude": "128.638139425032"
    },
    {
      "gu": "수성구",
      "name": "만촌1동 행정복지센터",
      "address": "대구광역시 수성구 국채보상로 1001(만촌동)",
      "phone": "053-666-3614",
      "latitude": "35.8662748323402",
      "longitude": "128.640054115689"
    },
    {
      "gu": "수성구",
      "name": "만촌2동 행정복지센터",
      "address": "대구광역시 수성구 무열로 12(만촌동)",
      "phone": "053-666-3632",
      "latitude": "35.8598590850532",
      "longitude": "128.647226303335"
    },
    {
      "gu": "수성구",
      "name": "만촌3동 행정복지센터",
      "address": "대구광역시 수성구 교학로2길 45(만촌동)",
      "phone": "053-666-3651",
      "latitude": "35.8555073897405",
      "longitude": "128.650568744125"
    },
    {
      "gu": "수성구",
      "name": "수성1가동 행정복지센터",
      "address": "대구광역시 수성구 명덕로73길 7(수성동1가)",
      "phone": "053-666-3685",
      "latitude": "35.8551231627646",
      "longitude": "128.610340783243"
    },
    {
      "gu": "수성구",
      "name": "수성2.3가동 행정복지센터",
      "address": "대구광역시 수성구 명덕로 443-2(수성동3가)",
      "phone": "053-666-3704",
      "latitude": "35.8547672137742",
      "longitude": "128.619009024611"
    },
    {
      "gu": "수성구",
      "name": "수성4가동 행정복지센터",
      "address": "대구광역시 수성구 들안로67길 64(수성동4가)",
      "phone": "053-666-3713",
      "latitude": "35.8626490557062",
      "longitude": "128.616646514195"
    },
    {
      "gu": "수성구",
      "name": "황금1동 행정복지센터",
      "address": "대구광역시 수성구 청호로57길 10(황금동)",
      "phone": "053-666-3731",
      "latitude": "35.8439806780898",
      "longitude": "128.638144029602"
    },
    {
      "gu": "수성구",
      "name": "중동 행정복지센터",
      "address": "대구광역시 수성구 수성로50길 38 (중동)",
      "phone": "053-666-3772",
      "latitude": "35.8473462626043",
      "longitude": "128.615089178726"
    },
    {
      "gu": "수성구",
      "name": "상동 행정복지센터",
      "address": "대구광역시 수성구 들안로9길 56(상동)",
      "phone": "053-666-3792",
      "latitude": "35.8321267022918",
      "longitude": "128.615461078377"
    },
    {
      "gu": "수성구",
      "name": "파동 행정복지센터",
      "address": "대구광역시 수성구 파동로 136(파동)",
      "phone": "053-666-3822",
      "latitude": "35.8154527651077",
      "longitude": "128.615127585275"
    },
    {
      "gu": "수성구",
      "name": "두산동 행정복지센터",
      "address": "대구광역시 수성구 무학로 112(두산동)",
      "phone": "053-666-3834",
      "latitude": "35.8293753573121",
      "longitude": "128.620578204889"
    },
    {
      "gu": "수성구",
      "name": "지산1동 행정복지센터",
      "address": "대구광역시 수성구 지범로21길 16(지산동)",
      "phone": "053-666-3855",
      "latitude": "35.8249145967166",
      "longitude": "128.637006156492"
    },
    {
      "gu": "수성구",
      "name": "지산2동 행정복지센터",
      "address": "대구광역시 수성구 용학로33길 9(지산동)",
      "phone": "053-666-3884",
      "latitude": "35.8231278937731",
      "longitude": "128.628018545552"
    },
    {
      "gu": "수성구",
      "name": "범물1동 행정복지센터",
      "address": "대구광역시 수성구 범안로 76(범물동)",
      "phone": "053-666-3909",
      "latitude": "35.8177503019386",
      "longitude": "128.64597351835"
    },
    {
      "gu": "수성구",
      "name": "범물2동 행정복지센터",
      "address": "대구광역시 수성구 범안로 52(범물동)",
      "phone": "053-666-3914",
      "latitude": "35.8175038716506",
      "longitude": "128.643442728585"
    },
    {
      "gu": "수성구",
      "name": "고산1동 행정복지센터",
      "address": "대구광역시 수성구 달구벌대로 3260-2(신매동)",
      "phone": "053-666-3948",
      "latitude": "35.8370967426809",
      "longitude": "128.712396718817"
    },
    {
      "gu": "수성구",
      "name": "고산2동 행정복지센터",
      "address": "대구광역시 수성구 달구벌대로 3091(시지동)",
      "phone": "053-666-3953",
      "latitude": "35.8434747607032",
      "longitude": "128.695183787551"
    },
    {
      "gu": "수성구",
      "name": "고산3동 행정복지센터",
      "address": "대구광역시 수성구 고산로 152(매호동)",
      "phone": "053-666-3986",
      "latitude": "35.8441353826711",
      "longitude": "128.70657672441"
    },
    {
      "gu": "수성구",
      "name": "수성구보건소",
      "address": "대구광역시 수성구 수성로 213",
      "phone": "053-666-3111",
      "latitude": "35.8449592744865",
      "longitude": "128.611938542291"
    },
    {
      "gu": "남구",
      "name": "남구보건소",
      "address": "대구광역시 남구 영선길 34(대명동)",
      "phone": "053-664-3642",
      "latitude": "35.8538999391532",
      "longitude": "128.591523659931"
    },
    {
      "gu": "남구",
      "name": "이천동행정복지센터",
      "address": "대구광역시 남구 이천로28길 18(이천동)",
      "phone": "053-664-3712",
      "latitude": "35.8536827965429",
      "longitude": "128.59941883013"
    },
    {
      "gu": "남구",
      "name": "봉덕1동행정복지센터",
      "address": "대구광역시 남구 봉덕로 51-2(봉덕동)",
      "phone": "053-664-3732",
      "latitude": "35.8452815401969",
      "longitude": "128.596415135046"
    },
    {
      "gu": "남구",
      "name": "봉덕2동행정복지센터",
      "address": "대구광역시 남구 이천로10길 50(봉덕동)",
      "phone": "053-664-3752",
      "latitude": "35.8438284757567",
      "longitude": "128.601112176994"
    },
    {
      "gu": "남구",
      "name": "봉덕3동행정복지센터",
      "address": "대구광역시 남구 중앙대로22길 100(봉덕동)",
      "phone": "053-664-3772",
      "latitude": "35.8424185973702",
      "longitude": "128.595940391709"
    },
    {
      "gu": "남구",
      "name": "대명1동행정복지센터",
      "address": "대구광역시 남구 두류공원로 38(대명동)",
      "phone": "053-664-3792",
      "latitude": "35.8417163055037",
      "longitude": "128.573554544811"
    },
    {
      "gu": "남구",
      "name": "대명2동행정복지센터",
      "address": "대구광역시 남구 명덕로32길 30(대명동)",
      "phone": "053-664-3812",
      "latitude": "35.8552853883787",
      "longitude": "128.586241475204"
    },
    {
      "gu": "남구",
      "name": "대명3동행정복지센터",
      "address": "대구광역시 남구 명덕로20길 115(대명동)",
      "phone": "053-664-3839",
      "latitude": "35.8523008344331",
      "longitude": "128.579056125397"
    },
    {
      "gu": "남구",
      "name": "대명4동행정복지센터",
      "address": "대구광역시 남구 두류공원로20길 19(대명동)",
      "phone": "053-664-3853",
      "latitude": "35.8459697643027",
      "longitude": "128.569508176117"
    },
    {
      "gu": "남구",
      "name": "대명5동행정복지센터",
      "address": "대구광역시 남구 대명로58길 11(대명동)",
      "phone": "053-664-3879",
      "latitude": "35.843233264808",
      "longitude": "128.587803901525"
    },
    {
      "gu": "남구",
      "name": "대명6동행정복지센터",
      "address": "대구광역시 남구 대명남로 73(대명동)",
      "phone": "053-664-3892",
      "latitude": "35.8350915800551",
      "longitude": "128.56609227456"
    },
    {
      "gu": "남구",
      "name": "대명9동행정복지센터",
      "address": "대구광역시 남구 큰골길 53(대명동)",
      "phone": "053-664-3912",
      "latitude": "35.8372536032388",
      "longitude": "128.579037919411"
    },
    {
      "gu": "남구",
      "name": "대명10동행정복지센터",
      "address": "대구광역시 남구 대명복개로4길 166(대멍동)",
      "phone": "053-664-3939",
      "latitude": "35.8400291050013",
      "longitude": "128.568956724756"
    },
    {
      "gu": "남구",
      "name": "대명11동행정복지센터",
      "address": "대구광역시 남구 관문시장4길 53(대명동)",
      "phone": "053-664-3952",
      "latitude": "35.8362413454586",
      "longitude": "128.560635816332"
    },
    {
      "gu": "남구",
      "name": "즐거운약국",
      "address": "대구광역시 남구 성당로 182-1 (대명동)",
      "phone": "053-219-7594",
      "latitude": "35.8496887652253",
      "longitude": "128.571689611366"
    },
    {
      "gu": "남구",
      "name": "미소온누리약국",
      "address": "대구광역시 남구 성당로 222, 1층 (대명동)",
      "phone": "053-622-0110",
      "latitude": "35.8527393212374",
      "longitude": "128.57404444609"
    },
    {
      "gu": "남구",
      "name": "정문약국",
      "address": "대구광역시 남구 성당로 170-2, 1층 (대명동)",
      "phone": "053-657-5110",
      "latitude": "35.8489906452884",
      "longitude": "128.570490611371"
    },
    {
      "gu": "남구",
      "name": "백세약국",
      "address": "대구광역시 남구 성당로 204 (대명동)",
      "phone": "053-651-1130",
      "latitude": "35.8507886072826",
      "longitude": "128.573610948317"
    },
    {
      "gu": "남구",
      "name": "메디칼하나약국",
      "address": "대구광역시 남구 성당로 166 (대명동)",
      "phone": "053-656-2092",
      "latitude": "35.8487408897421",
      "longitude": "128.570108138391"
    },
    {
      "gu": "남구",
      "name": "미래약국",
      "address": "대구광역시 남구 성당로 152-1, 1층 (대명동)",
      "phone": "053-625-6868",
      "latitude": "35.8481266119986",
      "longitude": "128.569208780779"
    },
    {
      "gu": "남구",
      "name": "은행약국",
      "address": "대구광역시 남구 성당로 206 (대명동)",
      "phone": "053-622-4500",
      "latitude": "35.8508961591123",
      "longitude": "128.573703838131"
    },
    {
      "gu": "남구",
      "name": "새건강약국",
      "address": "대구광역시 남구 성당로 200-1 (대명동)",
      "phone": "053-621-0311",
      "latitude": "35.8507574433012",
      "longitude": "128.573403345929"
    },
    {
      "gu": "남구",
      "name": "대명동산약국",
      "address": "대구광역시 남구 명덕로 70 (대명동)",
      "phone": "053-654-8275",
      "latitude": "35.8581176426353",
      "longitude": "128.578288684856"
    },
    {
      "gu": "남구",
      "name": "우리약국",
      "address": "대구광역시 남구 성당로 200-2 (대명동)",
      "phone": "053-654-6234",
      "latitude": "35.8506514756875",
      "longitude": "128.573244518045"
    },
    {
      "gu": "남구",
      "name": "주경약국",
      "address": "대구광역시 남구 대명로 27-1 (대명동)",
      "phone": "053-621-2632",
      "latitude": "35.8385433592151",
      "longitude": "128.560460788439"
    },
    {
      "gu": "남구",
      "name": "유일약국",
      "address": "대구광역시 남구 양지로 20-4 (대명동)",
      "phone": "053-621-3577",
      "latitude": "35.8508845006882",
      "longitude": "128.574772301646"
    },
    {
      "gu": "남구",
      "name": "달성약국",
      "address": "대구광역시 남구 양지로 12, 1층 (대명동)",
      "phone": "053-621-0800",
      "latitude": "35.850906144728",
      "longitude": "128.574420409302"
    },
    {
      "gu": "남구",
      "name": "참열린약국",
      "address": "대구광역시 남구 두류공원로17길 28, 1층 (대명동)",
      "phone": "053-628-7359",
      "latitude": "35.8442414575335",
      "longitude": "128.568645020428"
    },
    {
      "gu": "남구",
      "name": "성모약국",
      "address": "대구광역시 남구 두류공원로17길 39, 101호 (대명동, 금오맨션)",
      "phone": "053-312-0036",
      "latitude": "35.8442736230145",
      "longitude": "128.567623643682"
    },
    {
      "gu": "남구",
      "name": "대학천사약국",
      "address": "대구광역시 남구 두류공원로19길 31, 2층 (대명동)",
      "phone": "053-656-8878",
      "latitude": "35.8440884565931",
      "longitude": "128.567297481103"
    },
    {
      "gu": "남구",
      "name": "세계로약국",
      "address": "대구광역시 남구 두류공원로17길 40, 1층 (대명동)",
      "phone": "053-652-1122",
      "latitude": "35.8445641970452",
      "longitude": "128.568255587341"
    },
    {
      "gu": "남구",
      "name": "대진약국",
      "address": "대구광역시 남구 두류공원로17길 38 (대명동)",
      "phone": "053-623-1993",
      "latitude": "35.8444351702344",
      "longitude": "128.568392281206"
    },
    {
      "gu": "남구",
      "name": "온누리동일약국",
      "address": "대구광역시 남구 두류공원로17길 16 (대명동)",
      "phone": "053-625-2828",
      "latitude": "35.8439124115611",
      "longitude": "128.568930731046"
    },
    {
      "gu": "남구",
      "name": "온누리대학약국",
      "address": "대구광역시 남구 두류공원로17길 16 (대명동)",
      "phone": "053-655-1600",
      "latitude": "35.8439124115611",
      "longitude": "128.568930731046"
    },
    {
      "gu": "남구",
      "name": "수정약국",
      "address": "대구광역시 남구 두류공원로17길 36 (대명동)",
      "phone": "053-624-9456",
      "latitude": "35.8443591963291",
      "longitude": "128.568461841107"
    },
    {
      "gu": "남구",
      "name": "마리아약국",
      "address": "대구광역시 남구 두류공원로19길 8-1 (대명동)",
      "phone": "053-622-1486",
      "latitude": "35.8446311251092",
      "longitude": "128.568368138151"
    },
    {
      "gu": "남구",
      "name": "대명드림약국",
      "address": "대구광역시 남구 대명로 86, 1층(대명동)",
      "phone": null,
      "latitude": "35.839053018416",
      "longitude": "128.566971858234"
    },
    {
      "gu": "남구",
      "name": "초이스약국",
      "address": "대구광역시 남구 대명로 6, 1층 (대명동)",
      "phone": "053-627-0077",
      "latitude": "35.8373699584726",
      "longitude": "128.558232712221"
    },
    {
      "gu": "남구",
      "name": "대명약국",
      "address": "대구광역시 남구 대명로 66, 1층 107호 (대명동)",
      "phone": "053-622-2301",
      "latitude": "35.8389364736678",
      "longitude": "128.564830393254"
    },
    {
      "gu": "남구",
      "name": "미소약국",
      "address": "대구광역시 남구 월배로 468, 한영유니죤빌딩 105호 (대명동)",
      "phone": "053-657-2089",
      "latitude": "35.8346392170436",
      "longitude": "128.555957133156"
    },
    {
      "gu": "남구",
      "name": "햇살약국",
      "address": "대구광역시 남구 대명로 65, 세아타워 1층 (대명동)",
      "phone": "053-622-2255",
      "latitude": "35.8396049488828",
      "longitude": "128.564650401173"
    },
    {
      "gu": "남구",
      "name": "백일온누리약국",
      "address": "대구광역시 남구 대명로 12, 1층 (대명동)",
      "phone": "053-655-0109",
      "latitude": "35.8375545736996",
      "longitude": "128.558846446207"
    },
    {
      "gu": "남구",
      "name": "한빛약국",
      "address": "대구광역시 남구 월배로 468, 한영유니죤빌딩 1층 104호 (대명동)",
      "phone": "053-657-2269",
      "latitude": "35.8346392170436",
      "longitude": "128.555957133156"
    },
    {
      "gu": "남구",
      "name": "관문약국",
      "address": "대구광역시 남구 대명서로 165, A동 104호 (대명동, 관문빌딩)",
      "phone": "053-651-5689",
      "latitude": "35.8346245527275",
      "longitude": "128.556421421906"
    },
    {
      "gu": "남구",
      "name": "새소망약국",
      "address": "대구광역시 남구 대명남로 91 (대명동)",
      "phone": "053-621-9019",
      "latitude": "35.8350199309726",
      "longitude": "128.568255386196"
    },
    {
      "gu": "남구",
      "name": "메디팜사랑약국",
      "address": "대구광역시 남구 대명로 72 (대명동)",
      "phone": "053-626-5103",
      "latitude": "35.8389682220673",
      "longitude": "128.565568422538"
    },
    {
      "gu": "남구",
      "name": "달성곽약국",
      "address": "대구광역시 남구 월배로 470 (대명동)",
      "phone": "053-627-8575",
      "latitude": "35.8348857699839",
      "longitude": "128.556145211395"
    },
    {
      "gu": "남구",
      "name": "수플러스온누리약국",
      "address": "대구광역시 남구 대명로 124 (대명동)",
      "phone": "053-625-1018",
      "latitude": "35.8386299329344",
      "longitude": "128.571194495017"
    },
    {
      "gu": "남구",
      "name": "행복약국",
      "address": "대구광역시 남구 월배로 474, 1층 (대명동)",
      "phone": "053-421-3955",
      "latitude": "35.835271477298",
      "longitude": "128.556269387754"
    },
    {
      "gu": "남구",
      "name": "솔약국",
      "address": "대구광역시 남구 월배로 482 (대명동)",
      "phone": "053-621-9589",
      "latitude": "35.8361088761237",
      "longitude": "128.556759625417"
    },
    {
      "gu": "남구",
      "name": "프라자약국",
      "address": "대구광역시 남구 대명로 116 (대명동)",
      "phone": "053-622-6603",
      "latitude": "35.8386902697477",
      "longitude": "128.569853242965"
    },
    {
      "gu": "남구",
      "name": "한사랑약국",
      "address": "대구광역시 남구 대명로 26 (대명동)",
      "phone": "053-653-4845",
      "latitude": "35.8379019744091",
      "longitude": "128.560366328751"
    },
    {
      "gu": "남구",
      "name": "새매일약국",
      "address": "대구광역시 남구 대명서로 109 (대명동)",
      "phone": "053-629-5755",
      "latitude": "35.8330416065396",
      "longitude": "128.558470865214"
    },
    {
      "gu": "남구",
      "name": "대동약국",
      "address": "대구광역시 남구 대명로 27-1 (대명동)",
      "phone": "053-622-2610",
      "latitude": "35.8385433592151",
      "longitude": "128.560460788439"
    },
    {
      "gu": "남구",
      "name": "다솜약국",
      "address": "대구광역시 남구 대명로 123, 1층(대명동)",
      "phone": "053-621-2662",
      "latitude": "35.8396522380291",
      "longitude": "128.571212113508"
    },
    {
      "gu": "남구",
      "name": "건강약국",
      "address": "대구광역시 남구 대명로 205, 1층 (대명동)",
      "phone": "053-815-1862",
      "latitude": "35.8403508551768",
      "longitude": "128.579476600417"
    },
    {
      "gu": "남구",
      "name": "서약국",
      "address": "대구광역시 남구 현충로 99, 1층 (대명동)",
      "phone": "053-622-1190",
      "latitude": "35.8416878341429",
      "longitude": "128.579576821692"
    },
    {
      "gu": "남구",
      "name": "모자약국",
      "address": "대구광역시 남구 대명로 228 (대명동)",
      "phone": "053-656-1593",
      "latitude": "35.8407627854156",
      "longitude": "128.581968623975"
    },
    {
      "gu": "남구",
      "name": "한아름약국",
      "address": "대구광역시 남구 대명로 135, 1층 (대명동)",
      "phone": "053-621-3522",
      "latitude": "35.8395809744312",
      "longitude": "128.572553939433"
    },
    {
      "gu": "남구",
      "name": "안지약국",
      "address": "대구광역시 남구 대명로 174 (대명동)",
      "phone": "053-656-2747",
      "latitude": "35.8388124297602",
      "longitude": "128.576614239724"
    },
    {
      "gu": "남구",
      "name": "열린약국",
      "address": "대구광역시 남구 대명로 162-1 (대명동)",
      "phone": "053-655-3804",
      "latitude": "35.838812523127",
      "longitude": "128.575178059892"
    },
    {
      "gu": "남구",
      "name": "대구약국",
      "address": "대구광역시 남구 두류공원로 22 (대명동)",
      "phone": "053-628-0014",
      "latitude": "35.8406526447428",
      "longitude": "128.574788242371"
    },
    {
      "gu": "남구",
      "name": "뉴드림약국",
      "address": "대구광역시 남구 대명로 155 (대명동)",
      "phone": "053-623-0700",
      "latitude": "35.839534543079",
      "longitude": "128.574750422499"
    },
    {
      "gu": "남구",
      "name": "지혜약국",
      "address": "대구광역시 남구 두류공원로 26 (대명동)",
      "phone": "053-628-8227",
      "latitude": "35.8408599099707",
      "longitude": "128.574492523685"
    },
    {
      "gu": "남구",
      "name": "우리들약국",
      "address": "대구광역시 남구 대명로 216 (대명동)",
      "phone": "053-623-0597",
      "latitude": "35.8403594072882",
      "longitude": "128.580936662749"
    },
    {
      "gu": "남구",
      "name": "안지랑약국",
      "address": "대구광역시 남구 대명로 180 (대명동)",
      "phone": "053-656-9668",
      "latitude": "35.8387395521432",
      "longitude": "128.577497945578"
    },
    {
      "gu": "남구",
      "name": "장안약국",
      "address": "대구광역시 남구 두류공원로 18-1 (대명동)",
      "phone": "053-628-7585",
      "latitude": "35.8404397228512",
      "longitude": "128.575123579491"
    },
    {
      "gu": "남구",
      "name": "광장약국",
      "address": "대구광역시 남구 대명로 140, 101호 (대명동, 현우팰리스)",
      "phone": "053-625-5989",
      "latitude": "35.8389091759856",
      "longitude": "128.572869925219"
    },
    {
      "gu": "남구",
      "name": "영화약국",
      "address": "대구광역시 남구 큰골길 75 (대명동)",
      "phone": "053-624-1020",
      "latitude": "35.8369557595314",
      "longitude": "128.580279583829"
    },
    {
      "gu": "남구",
      "name": "부산약국",
      "address": "대구광역시 남구 대명로 125 (대명동)",
      "phone": "053-652-5326",
      "latitude": "35.8395922714193",
      "longitude": "128.571525240535"
    },
    {
      "gu": "남구",
      "name": "제일약국",
      "address": "대구광역시 남구 명덕시장길 53, 1층 (대명동)",
      "phone": "070-7582-8247",
      "latitude": "35.8453115346404",
      "longitude": "128.585938094356"
    },
    {
      "gu": "남구",
      "name": "남문약국",
      "address": "대구광역시 남구 명덕시장길 45 (대명동)",
      "phone": "053-621-2512",
      "latitude": "35.8453326678019",
      "longitude": "128.58560005509"
    },
    {
      "gu": "남구",
      "name": "정성약국",
      "address": "대구광역시 남구 중앙대로29길 25, 1층 (대명동)",
      "phone": "053-651-0408",
      "latitude": "35.8459699508767",
      "longitude": "128.588929191005"
    },
    {
      "gu": "남구",
      "name": "장원약국",
      "address": "대구광역시 남구 백의1길 50, 1층 (대명동)",
      "phone": "053-651-8785",
      "latitude": "35.8453853582449",
      "longitude": "128.585963914115"
    },
    {
      "gu": "남구",
      "name": "손약국",
      "address": "대구광역시 남구 중앙대로29길 31 (대명동)",
      "phone": "053-627-4615",
      "latitude": "35.846027022054",
      "longitude": "128.588552242923"
    },
    {
      "gu": "남구",
      "name": "영남약국",
      "address": "대구광역시 남구 중앙대로29길 33 (대명동)",
      "phone": "053-652-2848",
      "latitude": "35.8460365745825",
      "longitude": "128.588375011583"
    },
    {
      "gu": "남구",
      "name": "청마약국",
      "address": "대구광역시 남구 명덕시장길 50, 1층 (대명동)",
      "phone": "053-651-9419",
      "latitude": "35.8451303184885",
      "longitude": "128.585883130218"
    },
    {
      "gu": "남구",
      "name": "행복한약국",
      "address": "대구광역시 남구 중앙대로31길 203 (대명동)",
      "phone": "053-624-7113",
      "latitude": "35.8523367188446",
      "longitude": "128.583032823287"
    },
    {
      "gu": "남구",
      "name": "신대학약국",
      "address": "대구광역시 남구 명덕시장길 87-17 (대명동)",
      "phone": "053-623-8005",
      "latitude": "35.8460615299652",
      "longitude": "128.588109653097"
    },
    {
      "gu": "남구",
      "name": "신정문약국",
      "address": "대구광역시 남구 중앙대로29길 28 (대명동)",
      "phone": "053-652-9496",
      "latitude": "35.8462911554526",
      "longitude": "128.588797026384"
    },
    {
      "gu": "남구",
      "name": "드림약국",
      "address": "대구광역시 남구 명덕시장길 87-16 (대명동)",
      "phone": "053-625-4004",
      "latitude": "35.8459649021336",
      "longitude": "128.588234234651"
    },
    {
      "gu": "남구",
      "name": "새조은약국",
      "address": "대구광역시 남구 명덕시장길 48 (대명동)",
      "phone": "053-656-1414",
      "latitude": "35.8451686263626",
      "longitude": "128.585663971897"
    },
    {
      "gu": "남구",
      "name": "열린미래약국",
      "address": "대구광역시 남구 백의1길 48 (대명동)",
      "phone": "053-622-3969",
      "latitude": "35.8454929624326",
      "longitude": "128.585915586669"
    },
    {
      "gu": "남구",
      "name": "새봄약국",
      "address": "대구광역시 남구 명덕시장길 51 (대명동)",
      "phone": "053-655-8784",
      "latitude": "35.8455866461832",
      "longitude": "128.585822709673"
    },
    {
      "gu": "남구",
      "name": "강약국",
      "address": "대구광역시 남구 중앙대로29길 29 (대명동)",
      "phone": "053-623-2234",
      "latitude": "35.8460165347301",
      "longitude": "128.588684297671"
    },
    {
      "gu": "남구",
      "name": "대학당약국",
      "address": "대구광역시 남구 중앙대로29길 27 (대명동)",
      "phone": "053-621-0601",
      "latitude": "35.8459981058994",
      "longitude": "128.588803576302"
    },
    {
      "gu": "남구",
      "name": "남대구약국",
      "address": "대구광역시 남구 대명로 297-1 (대명동)",
      "phone": "053-656-1675",
      "latitude": "35.8445681682272",
      "longitude": "128.588448989267"
    },
    {
      "gu": "남구",
      "name": "동제약국",
      "address": "대구광역시 남구 중앙대로 160 (봉덕동)",
      "phone": "053-656-2802",
      "latitude": "35.8474738272918",
      "longitude": "128.590791777452"
    },
    {
      "gu": "남구",
      "name": "새제일약국",
      "address": "대구광역시 남구 중앙대로31길 167 (대명동)",
      "phone": "053-626-9444",
      "latitude": "35.85180255021",
      "longitude": "128.584650331121"
    },
    {
      "gu": "남구",
      "name": "뉴남대구약국",
      "address": "대구광역시 남구 중앙대로 200,7층",
      "phone": "053-475-1233",
      "latitude": "35.8506734420776",
      "longitude": "128.590981993044"
    },
    {
      "gu": "남구",
      "name": "다사랑약국",
      "address": "대구광역시 남구 명덕로 140, 1층 (대명동)",
      "phone": "070-5111-5585",
      "latitude": "35.8563298487732",
      "longitude": "128.585297021441"
    },
    {
      "gu": "남구",
      "name": "정인약국",
      "address": "대구광역시 남구 명덕로 164-1 (대명동)",
      "phone": "053-257-8113",
      "latitude": "35.8565503810545",
      "longitude": "128.588317430969"
    },
    {
      "gu": "남구",
      "name": "초록약국",
      "address": "대구광역시 남구 중앙대로 240, 1층 (대명동)",
      "phone": "053-474-0117",
      "latitude": "35.8546473600539",
      "longitude": "128.591005835423"
    },
    {
      "gu": "남구",
      "name": "동아약국",
      "address": "대구광역시 남구 명덕로 322, 1층 (이천동)",
      "phone": "053-471-2840",
      "latitude": "35.8548387371786",
      "longitude": "128.605137990592"
    },
    {
      "gu": "남구",
      "name": "새성모약국",
      "address": "대구광역시 남구 중앙대로42길 36 (대명동)",
      "phone": "053-554-7311",
      "latitude": "35.8515029567271",
      "longitude": "128.592722212225"
    },
    {
      "gu": "남구",
      "name": "온누리김약국",
      "address": "대구광역시 남구 영선길 28, 1층 (대명동)",
      "phone": "053-744-9133",
      "latitude": "35.85419553388",
      "longitude": "128.591726269419"
    },
    {
      "gu": "남구",
      "name": "하나로약국",
      "address": "대구광역시 남구 중앙대로 228 (대명동)",
      "phone": "053-472-8275",
      "latitude": "35.8535812642096",
      "longitude": "128.591022498195"
    },
    {
      "gu": "남구",
      "name": "영선제일약국",
      "address": "대구광역시 남구 중앙대로48길 3 (대명동)",
      "phone": "053-475-7770",
      "latitude": "35.8525546348873",
      "longitude": "128.591093855847"
    },
    {
      "gu": "남구",
      "name": "이천메디칼약국",
      "address": "대구광역시 남구 명덕로 326 (이천동)",
      "phone": "053-472-3672",
      "latitude": "35.8548323746836",
      "longitude": "128.605762392765"
    },
    {
      "gu": "남구",
      "name": "플러스약국",
      "address": "대구광역시 남구 중앙대로 230 (대명동)",
      "phone": "053-471-0686",
      "latitude": "35.8537149109524",
      "longitude": "128.590960746321"
    },
    {
      "gu": "남구",
      "name": "민약국",
      "address": "대구광역시 남구 효성로 80, 1층(봉덕동)",
      "phone": "053-475-2277",
      "latitude": "35.8404041587669",
      "longitude": "128.598375124949"
    },
    {
      "gu": "남구",
      "name": "기린약국",
      "address": "대구광역시 남구 신촌길 57, 402동 105호 (봉덕동)",
      "phone": "053-653-1500",
      "latitude": "35.8393923249023",
      "longitude": "128.60228754095"
    },
    {
      "gu": "남구",
      "name": "밝은온누리약국",
      "address": "대구광역시 남구 대명로 304, 1층 (대명동)",
      "phone": "053-802-7720",
      "latitude": "35.8445026670355",
      "longitude": "128.589374730256"
    },
    {
      "gu": "남구",
      "name": "명보약국",
      "address": "대구광역시 남구 중앙대로22길 179, 1층 (봉덕동)",
      "phone": "053-472-4678",
      "latitude": "35.8424126016973",
      "longitude": "128.600550367333"
    },
    {
      "gu": "남구",
      "name": "애플약국",
      "address": "대구광역시 남구 대명로 290-1, 1층",
      "phone": "053-653-6004",
      "latitude": "35.8438211173947",
      "longitude": "128.588224022938"
    },
    {
      "gu": "남구",
      "name": "용지온누리약국",
      "address": "대구광역시 남구 효성로 84 (봉덕동)",
      "phone": "053-784-3262",
      "latitude": "35.8406842090025",
      "longitude": "128.598214512878"
    },
    {
      "gu": "남구",
      "name": "매일인터넷약국",
      "address": "대구광역시 남구 효성중앙길 14 (봉덕동)",
      "phone": "053-471-3377",
      "latitude": "35.8354790717891",
      "longitude": "128.600977894381"
    },
    {
      "gu": "남구",
      "name": "효성약국",
      "address": "대구광역시 남구 신촌길 57, 401동 103호 (봉덕동, 앞산비스타동원)",
      "phone": "053-475-0005",
      "latitude": "35.8393923249023",
      "longitude": "128.60228754095"
    },
    {
      "gu": "남구",
      "name": "대학약국",
      "address": "대구광역시 남구 중앙대로 125 (대명동)",
      "phone": "053-621-3656",
      "latitude": "35.844449976829",
      "longitude": "128.590128619687"
    },
    {
      "gu": "남구",
      "name": "미리내약국",
      "address": "대구광역시 남구 앞산순환로 675 (봉덕동)",
      "phone": "053-472-6566",
      "latitude": "35.8331196904038",
      "longitude": "128.598419209339"
    },
    {
      "gu": "남구",
      "name": "신세안약국",
      "address": "대구광역시 남구 대명로 298 (대명동)",
      "phone": "053-622-2994",
      "latitude": "35.8443129751534",
      "longitude": "128.5888297257"
    },
    {
      "gu": "남구",
      "name": "봉덕정약국",
      "address": "대구광역시 남구 대봉로 61, 103호 (봉덕동)",
      "phone": "053-474-4946",
      "latitude": "35.8441814278463",
      "longitude": "128.603755851719"
    },
    {
      "gu": "남구",
      "name": "민애약국",
      "address": "대구광역시 남구 봉덕로 17 (봉덕동)",
      "phone": "053-471-9672",
      "latitude": "35.8455107294955",
      "longitude": "128.592556432772"
    },
    {
      "gu": "남구",
      "name": "다온약국",
      "address": "대구광역시 남구 봉덕로 90, 1층 (봉덕동)",
      "phone": "053-473-6600",
      "latitude": "35.8444670155036",
      "longitude": "128.600348823711"
    },
    {
      "gu": "남구",
      "name": "금비약국",
      "address": "대구광역시 남구 이천로19길 15-2 (봉덕동)",
      "phone": "053-471-1773",
      "latitude": "35.8498186565363",
      "longitude": "128.597497730888"
    },
    {
      "gu": "남구",
      "name": "보명당약국",
      "address": "대구광역시 남구 봉덕로 77 (봉덕동)",
      "phone": "053-472-9186",
      "latitude": "35.8450038244137",
      "longitude": "128.599259566742"
    },
    {
      "gu": "남구",
      "name": "새명약국",
      "address": "대구광역시 남구 봉덕로 73 (봉덕동)",
      "phone": "053-473-3434",
      "latitude": "35.8450681406698",
      "longitude": "128.599071928148"
    },
    {
      "gu": "남구",
      "name": "남경북약국",
      "address": "대구광역시 남구 이천로 40 (봉덕동)",
      "phone": "053-475-9991",
      "latitude": "35.8445432707831",
      "longitude": "128.598479218727"
    },
    {
      "gu": "남구",
      "name": "명당약국",
      "address": "대구광역시 남구 봉덕로 123 (봉덕동)",
      "phone": "053-472-7866",
      "latitude": "35.8446564680907",
      "longitude": "128.603799617329"
    },
    {
      "gu": "남구",
      "name": "경애약국",
      "address": "대구광역시 남구 대봉로17길 6 (봉덕동)",
      "phone": "053-472-6054",
      "latitude": "35.8465041161538",
      "longitude": "128.603966102081"
    }
  ]
}